City_ID,City,Lat,Lng,Max Temp,Humidity,Cloudiness,Wind Speed,Country,Date
0,port-aux-francais,-49.35,70.2167,6.400000000000034,94,32,9.66,TF,1684745886
1,hithadhoo,-0.6,73.0833,28.53000000000003,71,15,0.8,MV,1684745928
2,dunedin,-45.8742,170.5036,9.890000000000043,77,89,1.34,NZ,1684745961
3,waitangi,-43.9535,-176.5597,11.57000000000005,88,68,0.45,NZ,1684745895
4,iskateley,67.6803,53.1512,21.100000000000023,43,16,4.05,RU,1684745925
5,tartagal,-22.5164,-63.8013,15.240000000000009,98,30,0.99,AR,1684746467
6,iqaluit,63.7506,-68.5145,-8.149999999999977,62,100,5.66,CA,1684745891
7,sisimiut,66.9395,-53.6735,-2.2099999999999795,71,0,4.87,GL,1684745970
8,ribeira grande,38.5167,-28.7,18.210000000000036,72,20,3.09,PT,1684745887
9,illizi,26.4833,8.4667,26.890000000000043,9,24,3.38,DZ,1684745970
10,grytviken,-54.2811,-36.5092,4.410000000000025,95,98,3.67,GS,1684745896
11,west island,-12.1568,96.8225,29.99000000000001,70,75,2.57,CC,1684745900
12,saint-joseph,-21.3667,55.6167,27.480000000000018,66,3,2.38,RE,1684746469
13,longyearbyen,78.2186,15.6401,3.910000000000025,70,75,8.23,SJ,1684745886
14,edinburgh of the seven seas,-37.0676,-12.3116,14.830000000000041,86,100,10.67,SH,1684745893
15,uturoa,-16.7333,-151.4333,27.28000000000003,79,9,3.8,PF,1684745893
16,la'ie,21.6477,-157.9253,25.980000000000018,79,17,3.58,US,1684745937
17,port mathurin,-19.6833,63.4167,24.760000000000048,73,0,2.56,MU,1684745719
18,bathsheba,13.2167,-59.5167,27.340000000000032,83,40,3.6,BB,1684745912
19,harnosand,62.6323,17.9379,19.010000000000048,72,86,3.76,SE,1684746470
20,uruzgan,32.8333,66.0,30.100000000000023,14,100,5.57,AF,1684746470
21,invercargill,-46.4,168.35,8.450000000000045,84,100,4.65,NZ,1684745905
22,akhtubinsk,48.2795,46.1722,15.140000000000043,86,100,7.01,RU,1684746471
23,adamstown,-25.066,-130.1015,24.28000000000003,83,97,9.42,PN,1684745890
24,la ronge,55.1001,-105.2842,8.140000000000043,61,0,1.54,CA,1684746300
25,arkhangel'sk,64.5401,40.5433,22.52000000000004,31,99,1.02,RU,1684746472
26,ishii,34.0667,134.4333,22.950000000000045,73,75,5.14,JP,1684746472
27,qamdo,31.1667,97.2333,9.32000000000005,39,100,5.03,CN,1684745970
28,lihue,21.9789,-159.3672,23.77000000000004,85,75,5.66,US,1684745914
29,alice town,25.7167,-79.3,26.379999999999995,72,94,2.37,BS,1684746201
30,necochea,-38.5473,-58.7368,15.150000000000034,97,100,2.17,AR,1684745960
31,bubaque,11.2833,-15.8333,26.730000000000018,74,56,3.32,GW,1684745975
32,albany,42.6001,-73.9662,11.520000000000039,89,4,0.45,US,1684745659
33,berezovyy,51.6667,135.7,17.170000000000016,38,18,1.72,RU,1684746474
34,papatowai,-46.5619,169.4708,9.310000000000002,80,100,5.71,NZ,1684745920
35,vilyuchinsk,52.9306,158.4028,2.150000000000034,89,100,4.32,RU,1684745910
36,ikovka,55.6089,64.9375,25.610000000000014,20,21,2.75,RU,1684746475
37,jamestown,42.097,-79.2353,8.800000000000011,89,0,1.54,US,1684745929
38,inhambane,-23.865,35.3833,23.75,67,52,7.14,MZ,1684745961
39,ouargaye,11.5033,0.0572,31.57000000000005,47,100,5.31,BF,1684746476
40,kingston,17.997,-76.7936,26.53000000000003,88,20,3.09,JM,1684745852
41,nova vicosa,-17.8919,-39.3719,22.310000000000002,72,55,3.16,BR,1684746404
42,magadan,59.5667,150.8,3.8500000000000227,85,91,2.26,RU,1684746477
43,bredasdorp,-34.5322,20.0403,14.730000000000018,54,100,3.81,ZA,1684745899
44,sampit,-2.5333,112.95,29.310000000000002,71,94,2.19,ID,1684746478
45,mejit,10.2753,170.8646,27.700000000000045,83,100,6.83,MH,1684745918
46,tiksi,71.6872,128.8694,-5.259999999999991,81,24,1.6,RU,1684745900
47,sivas,39.7916,37.0019,17.350000000000023,59,75,6.17,TR,1684746479
48,hadibu,12.65,54.0333,31.910000000000025,57,13,2.22,YE,1684745888
49,codrington,-38.2667,141.9667,12.100000000000023,81,100,3.92,AU,1684745914
50,nizhniy odes,63.6445,54.856,19.439999999999998,29,16,2.1,RU,1684746479
51,porto novo,6.4965,2.6036,28.900000000000034,73,100,1.54,BJ,1684745908
52,port douglas,-16.4833,145.4667,22.189999999999998,65,43,7.13,AU,1684746480
53,la passe,45.5549,-0.8967,19.129999999999995,81,99,2.59,FR,1684745937
54,maitum,6.0392,124.4986,28.680000000000007,78,86,2.43,PH,1684746480
55,camayenne,9.535,-13.6878,27.879999999999995,80,50,1.87,GN,1684746480
56,margaret river,-33.95,115.0667,19.54000000000002,67,7,4.05,AU,1684745891
57,keflavik,64.0049,-22.5624,6.240000000000009,70,75,12.86,IS,1684745996
58,lorengau,-2.0226,147.2712,26.720000000000027,84,100,7.06,PG,1684746481
59,blackwater,-23.5833,148.8833,15.910000000000025,35,0,3.6,AU,1684746482
60,kupang,-10.1667,123.5833,25.850000000000023,70,43,6.03,ID,1684745672
61,fale old settlement,-9.3852,-171.2468,28.75,76,98,4.97,TK,1684745904
62,blackmans bay,-43.0167,147.3167,14.07000000000005,63,61,4.32,AU,1684745887
63,kismayo,-0.3582,42.5454,29.629999999999995,66,7,4.95,SO,1684745937
64,puerto natales,-51.7236,-72.4875,-1.9599999999999795,89,56,1.9,CL,1684745896
65,midoun,33.8081,10.9923,22.920000000000016,62,0,4.85,TN,1684746483
66,nouadhibou,20.931,-17.0347,17.99000000000001,88,99,7.2,MR,1684745721
67,yellowknife,62.456,-114.3525,9.200000000000045,57,14,6.71,CA,1684746484
68,talas,38.6908,35.5538,21.370000000000005,40,75,1.03,TR,1684746484
69,quellon,-43.1167,-73.6167,0.1400000000000432,100,3,1.03,CL,1684745950
70,mahibadhoo,3.7833,72.9667,29.100000000000023,70,69,2.41,MV,1684746485
71,hirara,24.8,125.2833,28.150000000000034,89,75,6.69,JP,1684745927
72,zykovo,55.9519,93.1461,20.410000000000025,38,76,5.87,RU,1684746486
73,thinadhoo,0.5333,72.9333,28.879999999999995,68,7,0.56,MV,1684746486
74,puerto ayora,-0.7393,-90.3518,25.310000000000002,91,77,1.79,EC,1684745899
75,punta arenas,-53.15,-70.9167,-0.9399999999999977,86,20,2.57,CL,1684745912
76,samho-rodongjagu,39.9475,127.8711,16.74000000000001,64,65,2.16,KP,1684746487
77,atafu village,-8.5421,-172.5159,28.620000000000005,78,97,4.6,TK,1684745919
78,dudinka,69.4058,86.1778,0.9000000000000341,100,100,4.16,RU,1684745957
79,masterton,-40.9597,175.6575,10.490000000000009,96,100,0.4,NZ,1684746488
80,kolonia,50.9333,6.95,23.660000000000025,79,75,2.57,DE,1684746354
81,tindouf,27.6711,-8.1474,18.390000000000043,45,1,9.8,DZ,1684746488
82,port augusta,-32.5,137.7667,13.960000000000036,63,0,3.29,AU,1684745973
83,ventspils,57.3894,21.5606,18.960000000000036,52,0,4.12,LV,1684746489
84,vorgashor,67.5833,63.95,5.610000000000014,100,100,3.82,RU,1684745937
85,weno,7.4515,151.8468,28.310000000000002,81,100,8.83,FM,1684745964
86,afaahiti,-17.75,-149.2833,25.930000000000007,77,14,4.29,PF,1684745930
87,mount gambier,-37.8333,140.7667,12.160000000000025,72,100,2.68,AU,1684745926
88,talnakh,69.4865,88.3972,0.6700000000000159,100,100,2.86,RU,1684745906
89,hermanus,-34.4187,19.2345,15.450000000000045,61,100,4.68,ZA,1684746490
90,thompson,55.7435,-97.8558,3.090000000000032,65,75,1.03,CA,1684745872
91,dukhan,25.4297,50.7858,32.660000000000025,48,1,1.05,QA,1684746490
92,riosucio,5.4216,-75.7032,15.410000000000025,99,100,0.14,CO,1684746490
93,natchitoches,31.7668,-93.1335,17.99000000000001,88,0,1.54,US,1684746490
94,port alfred,-33.5906,26.891,16.77000000000004,86,63,0.45,ZA,1684745956
95,prabumulih,-3.45,104.25,30.510000000000048,65,100,1.61,ID,1684746491
96,taunggyi,20.7833,97.0333,30.08000000000004,30,66,3.02,MM,1684746491
97,anadyr,64.75,177.4833,-0.7199999999999704,100,100,2.0,RU,1684745905
98,itaueira,-7.6033,-43.0256,21.720000000000027,74,58,2.93,BR,1684746491
99,wanning,18.8003,110.3967,30.370000000000005,80,4,5.61,CN,1684746491
100,saipan,15.1355,145.701,29.390000000000043,100,40,6.69,MP,1684745967
101,san patricio,28.017,-97.5169,24.350000000000023,87,34,2.5,US,1684745926
102,susuman,62.7833,148.1667,3.830000000000041,77,100,3.95,RU,1684746492
103,gaspe,48.8334,-64.4819,2.0200000000000387,71,5,3.71,CA,1684746492
104,ghanzi,-21.5667,21.7833,23.850000000000023,21,0,1.78,BW,1684745719
105,filadelfia,39.9523,-75.1638,15.210000000000036,84,0,1.54,US,1684746338
106,bilibino,68.0546,166.4372,3.9399999999999977,86,100,4.27,RU,1684745900
107,puerto baquerizo moreno,-0.9,-89.6,24.77000000000004,80,76,4.02,EC,1684745944
108,lompoc,34.6391,-120.4579,13.210000000000036,85,100,4.47,US,1684745961
109,hotan,37.0997,79.9269,32.60000000000002,7,0,5.25,CN,1684745946
110,malango,-2.9627,119.9001,21.660000000000025,98,86,0.45,ID,1684746493
111,chust,41.0094,71.2287,30.660000000000025,19,65,3.97,UZ,1684746493
112,stephenville,32.2207,-98.2023,15.430000000000007,88,0,0.0,US,1684746493
113,tazacorte,28.629,-17.9293,18.970000000000027,82,75,5.14,ES,1684746493
114,ilulissat,69.2167,-51.1,-8.399999999999977,81,32,3.39,GL,1684745931
115,port lincoln,-34.7333,135.8667,15.110000000000014,70,98,1.72,AU,1684745949
116,bandon,51.7469,-8.7425,12.770000000000039,75,50,6.9,IE,1684746494
117,togur,58.3631,82.8265,19.939999999999998,29,29,5.85,RU,1684745991
118,colonia,50.9333,6.95,22.08000000000004,80,100,2.57,DE,1684745951
119,lodja,-3.4833,23.4333,31.680000000000007,52,100,0.51,CD,1684745720
120,bato,13.3528,123.3677,29.950000000000045,70,38,1.2,PH,1684746494
121,chonchi,-42.6128,-73.8092,1.7300000000000182,95,1,0.87,CL,1684745923
122,hinojosa del duque,38.5006,-5.1465,16.629999999999995,57,99,3.37,ES,1684746495
123,kavieng,-2.5744,150.7967,26.090000000000032,86,100,7.21,PG,1684746495
124,sinabang,2.4803,96.3801,29.02000000000004,74,38,3.01,ID,1684745911
125,avarua,-21.2078,-159.775,24.03000000000003,73,100,3.09,CK,1684745913
126,sucua,-2.4667,-78.1667,19.120000000000005,97,24,1.63,EC,1684746495
127,las varillas,-31.8721,-62.7195,16.850000000000023,98,100,2.8,AR,1684746496
128,hawaiian paradise park,19.5933,-154.9731,22.24000000000001,96,40,2.06,US,1684746338
129,tazovsky,67.4667,78.7,2.910000000000025,99,100,5.54,RU,1684745954
130,namsos,64.4662,11.4957,17.03000000000003,51,0,5.66,NO,1684745990
131,brookings,44.3114,-96.7984,18.0,46,0,5.66,US,1684746486
132,borogontsy,62.6683,131.1683,4.3700000000000045,56,100,3.44,RU,1684746496
133,kharhial,20.2833,82.7667,41.23000000000002,14,66,1.98,IN,1684746496
134,ipora,-16.4419,-51.1178,14.430000000000007,63,34,2.12,BR,1684746293
135,maluso,6.543,121.8753,30.05000000000001,76,91,1.83,PH,1684746497
136,hobyo,5.3505,48.5268,30.52000000000004,67,34,6.33,SO,1684746497
137,island harbour,50.724,-1.2758,16.75,72,5,3.58,GB,1684745982
138,pandan,14.0453,124.1694,29.060000000000002,78,17,1.47,PH,1684745919
139,cromer,52.9312,1.2989,14.520000000000039,50,69,5.81,GB,1684746497
140,mount pearl,47.5166,-52.7813,12.189999999999998,97,100,7.72,CA,1684745966
141,remire-montjoly,4.9167,-52.2667,24.02000000000004,100,75,0.0,GF,1684745908
142,baie-comeau,49.2168,-68.1489,-1.17999999999995,69,0,2.06,CA,1684746245
143,chandbali,20.7833,86.7667,39.650000000000034,34,3,8.42,IN,1684746498
144,kemijarvi,66.7131,27.4306,19.060000000000002,33,96,2.44,FI,1684746498
145,trairi,-3.2778,-39.2689,23.129999999999995,95,74,2.72,BR,1684746461
146,klyuchi,52.2667,79.1667,24.480000000000018,21,40,4.62,RU,1684745902
147,tamanrasset,22.785,5.5228,27.950000000000045,13,0,7.72,DZ,1684745978
148,wailua homesteads,22.0669,-159.378,23.439999999999998,85,75,5.66,US,1684745917
149,east london,-33.0153,27.9116,16.74000000000001,58,83,3.4,ZA,1684746498
150,cabo san lucas,22.8909,-109.9124,25.590000000000032,68,0,8.78,MX,1684746238
151,ushuaia,-54.8,-68.3,-0.18999999999999773,74,0,2.06,AR,1684745718
152,angaur state,6.906,134.13,29.5,71,34,4.27,PW,1684745919
153,petropavlovsk-kamchatsky,53.0452,158.6483,1.330000000000041,100,100,3.0,RU,1684745921
154,powell river,49.8496,-124.5361,11.770000000000039,82,51,5.28,CA,1684746499
155,cirebon,-6.7063,108.557,29.340000000000032,64,33,3.25,ID,1684746499
156,shingu,33.7333,135.9833,23.470000000000027,75,73,3.15,JP,1684746499
157,santa ana,33.7456,-117.8678,18.090000000000032,89,100,1.54,US,1684746488
158,khromtau,50.2503,58.4347,22.390000000000043,26,0,7.9,KZ,1684746500
159,bovalino,38.149,16.174,18.970000000000027,89,100,2.38,IT,1684746500
160,tra mhor,52.1624,-7.1524,14.150000000000034,80,82,3.58,IE,1684746500
161,olonkinbyen,70.9221,-8.7187,1.650000000000034,97,100,9.89,SJ,1684745909
162,nuuk,64.1835,-51.7216,-0.06999999999999318,53,99,3.58,GL,1684745903
163,valparaiso,-33.0393,-71.6273,12.800000000000011,94,100,2.57,CL,1684746247
164,loango,-4.6719,11.8312,26.470000000000027,77,80,1.99,CG,1684746500
165,coquimbo,-29.9533,-71.3436,11.850000000000023,93,0,5.14,CL,1684745724
166,touros,-5.1989,-35.4608,24.150000000000034,92,55,4.86,BR,1684745922
167,znamenskoye,57.1281,73.8282,24.640000000000043,20,26,3.81,RU,1684746501
168,celestun,20.8667,-90.4,24.57000000000005,86,5,2.82,MX,1684746501
169,arendal,58.4615,8.7725,18.890000000000043,55,100,4.04,NO,1684746501
170,greenville,35.6127,-77.3663,11.740000000000009,98,100,0.0,US,1684745818
171,margate,51.3813,1.3862,15.730000000000018,73,12,4.92,GB,1684745958
172,isafjordur,66.0755,-23.124,5.020000000000039,65,75,6.17,IS,1684746501
173,brisas de zicatela,15.8369,-97.0419,27.930000000000007,75,87,2.02,MX,1684745935
174,agadez,19.75,10.25,37.31,10,9,2.36,NE,1684746502
175,ambodifotatra,-16.9833,49.85,25.910000000000025,78,3,3.35,MG,1684746502
176,general conesa,-40.1,-64.4333,10.920000000000016,59,100,3.44,AR,1684746502
177,pucallpa,-8.3791,-74.5539,22.78000000000003,99,90,0.23,PE,1684746502
178,badger,64.8,-147.5333,13.950000000000045,66,100,7.2,US,1684745935
179,kirakira,-10.4544,161.9205,27.28000000000003,85,93,2.27,SB,1684745959
180,paraparaumu,-40.9167,175.0167,13.360000000000014,90,100,2.21,NZ,1684746502
181,horta,38.5333,-28.6333,17.79000000000002,74,20,3.09,PT,1684746502
182,moussoro,13.6408,16.4901,35.83000000000004,31,92,3.7,TD,1684746503
183,bibiani,6.4635,-2.3194,24.99000000000001,89,100,0.23,GH,1684746503
184,sao vicente,-23.9631,-46.3919,20.710000000000036,26,100,1.8,BR,1684746503
185,bunia,1.5667,30.25,27.120000000000005,54,89,3.45,CD,1684746503
186,bethel,41.3712,-73.414,14.410000000000025,88,0,0.0,US,1684746503
187,kajiado,-1.8524,36.7768,21.680000000000007,58,83,3.04,KE,1684746503
188,utrik,11.2278,169.8474,27.970000000000027,83,100,6.53,MH,1684746503
189,trincomalee,8.5711,81.2335,29.650000000000034,75,83,7.02,LK,1684746217
190,lebu,-37.6167,-73.65,10.720000000000027,86,98,3.45,CL,1684746504
191,konarka,19.9,86.1167,37.22000000000003,66,1,8.41,IN,1684746378
192,lulea,65.5842,22.1547,18.04000000000002,48,0,2.57,SE,1684746504
193,villa ojo de agua,-29.5,-63.6938,15.400000000000034,99,100,2.32,AR,1684746504
194,sitka,57.0531,-135.33,8.939999999999998,76,75,4.12,US,1684746504
195,qaqortoq,60.7167,-46.0333,1.910000000000025,98,100,5.01,GL,1684746505
196,mossel bay,-34.1831,22.146,15.460000000000036,57,53,3.75,ZA,1684746505
197,chingirlau,51.095,54.0814,24.74000000000001,27,46,8.56,KZ,1684746505
198,stanley,54.868,-1.6985,16.390000000000043,52,0,2.57,GB,1684745913
199,usol'ye-sibirskoye,52.7519,103.6453,20.710000000000036,27,100,2.08,RU,1684746505
200,port elizabeth,-33.918,25.5701,17.28000000000003,83,40,2.57,ZA,1684745913
201,port isabel,26.0734,-97.2086,24.02000000000004,94,40,0.0,US,1684746506
202,kralendijk,12.15,-68.2667,26.99000000000001,89,75,3.6,BQ,1684745927
203,altamira,-3.2033,-52.2064,22.129999999999995,99,83,1.05,BR,1684746506
204,pankrushikha,53.8319,80.3406,23.420000000000016,25,84,4.54,RU,1684746507
205,kolonia town,6.964,158.206,27.0,83,75,2.06,FM,1684746507
206,korhogo,9.45,-5.6333,26.560000000000002,73,89,2.76,CI,1684746507
207,glace bay,46.1969,-59.957,8.920000000000016,81,100,5.66,CA,1684745949
208,shimoda,34.6667,138.95,22.840000000000032,86,42,5.02,JP,1684746508
209,quezon,7.7303,125.0989,26.03000000000003,91,92,0.71,PH,1684746508
210,lautoka,-17.6167,177.4667,24.920000000000016,94,40,2.57,FJ,1684746508
211,nemuro,43.3236,145.575,7.430000000000007,98,86,4.83,JP,1684745962
212,mwinilunga,-11.7358,24.4293,26.920000000000016,32,7,3.59,ZM,1684746509
213,sainte-adresse,49.5089,0.0845,13.590000000000032,82,0,3.6,FR,1684746509
214,aykhal,66.0,111.5,1.25,65,100,5.35,RU,1684745961
215,bardai,11.65,7.2333,30.0,45,92,2.32,NG,1684746509
216,tvoroyri,61.5556,-6.8111,8.04000000000002,81,60,9.23,FO,1684746510
217,inverell,-29.7833,151.1167,8.390000000000043,69,0,0.89,AU,1684746510
218,salinopolis,-0.6136,-47.3561,26.090000000000032,88,99,4.4,BR,1684746471
219,georgetown,5.4112,100.3354,31.960000000000036,62,40,3.6,MY,1684746386
220,castillos,-34.1667,-53.8333,15.180000000000007,98,38,1.3,UY,1684746511
221,kununurra,-15.7667,128.7333,25.99000000000001,21,7,5.14,AU,1684745968
222,narman,40.3465,41.8703,14.700000000000045,58,77,5.09,TR,1684746511
223,mogocha,53.7333,119.7667,20.510000000000048,28,98,1.99,RU,1684746511
224,dangriga,16.9692,-88.2321,25.430000000000007,83,10,1.42,BZ,1684746512
225,polyarnyy,69.1989,33.4478,9.439999999999998,68,19,4.78,RU,1684746512
226,berwick-upon-tweed,55.7833,-2.0,15.010000000000048,83,100,2.74,GB,1684746512
227,qulsary,46.9531,54.0198,22.08000000000004,49,100,6.67,KZ,1684746513
228,wanxian,30.8039,108.3897,15.990000000000009,90,100,1.14,CN,1684746322
229,belen,36.4891,36.2233,24.08000000000004,39,40,6.17,TR,1684746513
230,maceio,-9.6658,-35.7353,23.689999999999998,94,100,1.03,BR,1684746513
231,tsiombe,-25.3,45.4833,26.0,43,0,5.03,MG,1684746514
232,walvis bay,-22.9575,14.5053,19.32000000000005,58,20,1.32,NA,1684746514
233,belyy yar,53.6039,91.3903,22.939999999999998,18,0,5.0,RU,1684745969
234,priargunsk,50.3691,119.1012,24.410000000000025,18,73,4.27,RU,1684746514
235,malvan,16.0667,73.4667,30.810000000000002,67,15,8.89,IN,1684746515
236,nassau,40.7507,-73.5829,16.600000000000023,76,0,2.57,US,1684746456
237,st. john's,47.5649,-52.7093,12.660000000000025,97,100,7.72,CA,1684746366
238,fortuna,40.5982,-124.1573,12.189999999999998,94,100,4.12,US,1684745963
239,whitehorse,60.7161,-135.0538,7.9500000000000455,42,94,2.24,CA,1684746470
240,raisen,23.3333,77.8,39.5,13,57,3.28,IN,1684746516
241,jieshi,22.8134,115.8257,28.27000000000004,81,100,7.0,CN,1684746516
242,letlhakeng,-24.0944,25.0298,23.090000000000032,15,0,0.99,BW,1684746516
243,nakatsu,33.5981,131.1883,20.100000000000023,91,100,1.58,JP,1684746516
244,constantia,44.1833,28.65,24.379999999999995,69,82,4.08,RO,1684746517
245,amga,60.8953,131.9608,5.490000000000009,48,100,3.93,RU,1684745986
246,sinop,41.7711,34.8709,13.240000000000009,78,77,2.25,TR,1684746518
247,enshi,30.3,109.4833,14.950000000000045,96,100,0.61,CN,1684745920
248,kudat,6.8837,116.8477,29.930000000000007,68,12,3.51,MY,1684746518
249,kailua-kona,19.6406,-155.9956,25.980000000000018,95,40,3.6,US,1684745875
250,forio,40.7342,13.8646,23.620000000000005,68,58,1.0,IT,1684746519
251,hailar,49.2,119.7,22.430000000000007,19,66,2.42,CN,1684746519
252,sonoita,31.85,-112.8333,22.620000000000005,30,25,2.39,MX,1684746519
253,vung tau,10.346,107.0843,29.980000000000018,74,100,7.67,VN,1684746408
254,udachny,66.4167,112.4,2.910000000000025,58,100,3.95,RU,1684746520
255,tocopilla,-22.092,-70.1979,17.80000000000001,71,31,3.17,CL,1684746520
256,lerwick,60.1545,-1.1494,10.0,78,91,3.97,GB,1684746520
257,mahalapye,-23.1041,26.8142,23.33000000000004,16,0,1.82,BW,1684746521
258,ermoupolis,37.4423,24.9425,21.390000000000043,64,40,3.09,GR,1684746521
259,itumba,-9.4,33.1833,25.350000000000023,49,74,2.15,TZ,1684746521
260,esil,51.9556,66.4042,23.640000000000043,21,56,1.75,KZ,1684746521
261,puerto lempira,15.2667,-83.7667,25.83000000000004,79,100,1.27,HN,1684746521
262,simpang,-1.2667,104.0833,29.610000000000014,77,67,1.21,ID,1684746522
263,taghazout,30.5426,-9.7112,20.430000000000007,59,0,5.41,MA,1684746522
264,yuxia,34.0615,108.6291,19.870000000000005,42,100,0.95,CN,1684746522
265,bamboo flat,11.7,92.7167,30.480000000000018,67,57,5.28,IN,1684746523
266,hafar al-batin,28.4328,45.9708,38.460000000000036,14,15,3.48,SA,1684746523
267,yanbu,24.0891,38.0637,31.810000000000002,36,0,3.97,SA,1684746524
268,vrangel',42.7297,133.0839,14.520000000000039,61,30,1.93,RU,1684746524
269,san rafael,-34.6177,-68.3301,13.210000000000036,44,87,7.34,AR,1684746524
270,aberdeen,57.1437,-2.0981,11.970000000000027,75,100,6.69,GB,1684746524
271,kapa'a,22.0752,-159.319,24.180000000000007,85,75,5.66,US,1684746524
272,olyokminsk,60.3736,120.4264,11.390000000000043,22,7,2.49,RU,1684745943
273,usinsk,65.9939,57.5281,16.930000000000007,47,73,4.56,RU,1684746525
274,nurota,40.5614,65.6886,32.72000000000003,16,9,6.75,UZ,1684746525
275,kartuzy,54.3342,18.1974,20.55000000000001,32,0,5.66,PL,1684746525
276,dar chioukh,34.8964,3.4854,19.120000000000005,32,99,9.17,DZ,1684746525
277,kodiak,57.79,-152.4072,6.730000000000018,81,100,3.09,US,1684745934
278,alice springs,-23.7,133.8833,16.75,42,0,3.6,AU,1684745987
279,cuite,-6.4836,-36.1536,18.53000000000003,96,27,3.03,BR,1684746526
280,puerto aysen,-45.4,-72.7,-0.5999999999999659,98,41,0.56,CL,1684746526
281,minas de marcona,-15.2119,-75.1103,13.660000000000025,88,75,5.08,PE,1684745934
282,prince albert,53.2001,-105.7677,13.010000000000048,80,60,3.33,CA,1684746526
283,dolores,-36.3132,-57.6792,15.379999999999995,98,82,2.7,AR,1684746526
284,vohibinany,-17.35,49.0333,30.610000000000014,44,0,1.77,MG,1684746526
285,saint-philippe,-21.3585,55.7679,27.77000000000004,68,5,1.68,RE,1684746527
286,konobeyevo,55.4064,38.6625,16.920000000000016,73,100,1.59,RU,1684746527
287,porbandar,21.6422,69.6093,31.5,62,0,7.23,IN,1684746527
288,carnarvon,-24.8667,113.6333,23.890000000000043,43,97,5.18,AU,1684745940
289,copiapo,-27.3667,-70.3333,9.830000000000041,65,1,1.02,CL,1684746527
290,cullman,34.1748,-86.8436,17.200000000000045,100,0,0.0,US,1684746245
291,burang,30.25,81.1667,10.090000000000032,38,29,4.31,CN,1684746527
292,tralee,52.2704,-9.7026,12.140000000000043,82,75,2.06,IE,1684746528
293,katsuura,35.1333,140.3,21.79000000000002,87,90,5.39,JP,1684745990
294,raduzhny,62.0961,77.475,15.330000000000041,29,0,4.2,RU,1684746528
295,sanniquellie,7.3622,-8.7061,26.49000000000001,75,70,0.53,LR,1684746528
296,vilyuysk,63.7553,121.6247,7.390000000000043,27,10,3.65,RU,1684745949
297,tura,25.5198,90.2201,31.590000000000032,49,0,2.65,IN,1684745966
298,concepcion,-36.827,-73.0498,9.890000000000043,100,100,1.54,CL,1684746420
299,new norfolk,-42.7826,147.0587,14.720000000000027,65,74,3.58,AU,1684745949
300,dock junction,31.2025,-81.5168,25.0,98,100,4.63,US,1684746529
301,theniet el had,35.8711,2.0281,16.33000000000004,47,100,5.31,DZ,1684746529
302,rio grande,-32.035,-52.0986,16.77000000000004,93,100,4.25,BR,1684746529
303,bandiagara,14.3501,-3.6104,34.05000000000001,38,93,6.52,ML,1684745992
304,prince george,53.9166,-122.753,11.25,95,100,0.89,CA,1684746501
305,talara,-4.5772,-81.2719,23.160000000000025,81,53,4.72,PE,1684746530
306,lawton,34.6087,-98.3903,13.560000000000002,84,0,0.89,US,1684746530
307,holualoa,19.6228,-155.9522,23.910000000000025,94,40,3.6,US,1684745971
308,caska,41.6506,21.6622,19.29000000000002,58,37,2.61,MK,1684746531
309,alofi,-19.0595,-169.9187,21.939999999999998,83,75,2.57,NU,1684746531
310,gumdag,39.2061,54.5906,33.10000000000002,20,6,1.71,TM,1684746531
311,ngereklmadel,7.4883,134.4856,28.05000000000001,78,75,0.0,PW,1684746531
312,yarkovo,57.4028,67.0786,25.82000000000005,18,4,2.36,RU,1684746531
313,gurupi,-11.7292,-49.0686,19.370000000000005,55,5,2.58,BR,1684746531
314,ob',54.9872,82.7166,24.99000000000001,18,0,5.0,RU,1684746532
315,tekeli,44.83,78.8239,14.560000000000002,63,81,1.86,KZ,1684746532
316,arraial do cabo,-22.9661,-42.0278,20.920000000000016,83,20,2.57,BR,1684746532
317,vila franca do campo,37.7167,-25.4333,17.230000000000018,73,99,3.35,PT,1684746532
318,khandyga,62.6667,135.6,6.180000000000007,59,100,4.08,RU,1684746532
319,floro,61.5996,5.0328,19.04000000000002,87,40,3.6,NO,1684746532
320,xuanzhou,30.9525,118.7553,14.5,89,100,3.09,CN,1684746532
321,punta cardon,11.6581,-70.215,25.660000000000025,78,100,1.73,VE,1684746533
322,peniche,39.3558,-9.3811,18.930000000000007,77,58,1.04,PT,1684745957
323,dwarka,22.2394,68.9678,30.49000000000001,70,1,7.93,IN,1684745962
324,glendive,47.1053,-104.7125,12.79000000000002,82,0,0.0,US,1684746533
325,grand gaube,-20.0064,57.6608,28.54000000000002,67,0,2.24,MU,1684746533
326,rongelap,11.1635,166.8941,27.80000000000001,83,99,6.66,MH,1684745946
327,isangel,-19.55,169.2667,21.79000000000002,81,100,1.46,VU,1684745966
328,imbituba,-28.24,-48.6703,20.480000000000018,85,100,2.7,BR,1684746534
329,fort bragg,35.139,-79.006,14.0,97,75,0.0,US,1684746534
330,alaghsas,17.0187,8.0168,39.879999999999995,8,92,4.62,NE,1684746534
331,yorktown,40.1736,-85.4941,13.270000000000039,85,0,0.0,US,1684746534
332,belmonte,-15.8631,-38.8828,21.970000000000027,85,81,1.97,BR,1684746534
333,bilajer,40.5681,50.0378,26.900000000000034,50,0,6.17,AZ,1684746534
334,hamilton,39.1834,-84.5333,12.760000000000048,89,0,0.0,US,1684745949
335,melfi,40.9965,15.6514,20.27000000000004,71,55,2.7,IT,1684746535
336,gao,16.6362,1.637,38.08000000000004,13,87,1.65,ML,1684746439
337,sidney,-33.8679,151.2073,14.090000000000032,68,2,1.95,AU,1684745768
338,miyazaki,31.9111,131.4239,21.210000000000036,81,96,1.7,JP,1684746511
339,visby,57.6409,18.296,21.010000000000048,42,0,3.09,SE,1684746535
340,cafayate,-26.073,-65.9761,15.930000000000007,21,6,2.52,AR,1684746535
341,fort mcmurray,56.7268,-111.381,13.770000000000039,76,40,2.06,CA,1684745991
342,san luis de la loma,17.2706,-100.8939,27.420000000000016,82,99,0.73,MX,1684746536
343,east florence,34.8095,-87.6495,17.02000000000004,84,0,0.0,US,1684746536
344,galliano,29.4422,-90.2992,25.0,78,0,1.54,US,1684746536
345,duncan,34.5023,-97.9578,13.54000000000002,83,0,2.06,US,1684746536
346,yoloten,37.2989,62.3597,38.960000000000036,9,97,5.81,TM,1684746536
347,hollabrunn,48.55,16.0833,24.5,68,57,3.45,AT,1684746536
348,ust-nera,64.5667,143.2,5.510000000000048,67,100,2.59,RU,1684746537
349,nerekhta,57.4588,40.5747,20.939999999999998,59,100,4.95,RU,1684746537
350,baihe,22.15,107.2333,40.09000000000003,27,10,1.86,CN,1684746537
351,dawukou,39.0419,106.3958,22.590000000000032,8,95,5.12,CN,1684746537
352,antonio enes,-16.2325,39.9086,28.590000000000032,60,0,2.02,MZ,1684746537
353,san ignacio,17.1561,-89.0714,25.08000000000004,94,75,0.0,BZ,1684746537
354,mount isa,-20.7333,139.5,20.870000000000005,19,3,4.12,AU,1684745906
355,naze,28.3667,129.4833,22.200000000000045,95,98,8.6,JP,1684746538
356,sao jose da coroa grande,-8.8978,-35.1478,23.960000000000036,89,35,1.27,BR,1684746512
357,enewetak,11.3474,162.3373,28.189999999999998,80,61,6.68,MH,1684745950
358,aasiaat,68.7098,-52.8699,-6.810000000000002,97,66,5.59,GL,1684746538
359,ubinskoye,55.3068,79.6802,23.75,24,94,4.35,RU,1684746539
360,moca,19.5,-70.5,19.03000000000003,94,40,0.0,DO,1684746320
361,sihanoukville,10.6093,103.5296,27.970000000000027,89,40,2.57,KH,1684746539
362,harper,4.375,-7.7169,27.74000000000001,80,45,1.46,LR,1684746539
363,tarrafal de sao nicolau,16.5667,-24.3667,22.090000000000032,78,100,7.8,CV,1684746540
364,torghay,49.6339,63.4981,26.04000000000002,17,4,7.8,KZ,1684745988
365,bazarak,35.3129,69.5152,23.439999999999998,32,91,1.89,AF,1684746540
366,caconda,-13.7333,15.0667,21.710000000000036,39,93,2.29,AO,1684746540
367,kharabali,47.4196,47.2568,18.670000000000016,74,100,9.91,RU,1684746541
368,faya-largeau,17.9257,19.1043,41.77000000000004,9,3,3.73,TD,1684746541
369,amahai,-3.3333,128.9167,25.77000000000004,87,100,2.56,ID,1684746541
370,narasannapeta,18.4167,84.05,33.69,59,1,9.43,IN,1684746542
371,baoying,33.2292,119.3092,23.950000000000045,32,27,4.56,CN,1684746542
372,crucecita,-28.95,-58.9833,17.32000000000005,97,100,3.1,AR,1684746543
373,northam,51.0333,-4.2167,15.700000000000045,84,3,4.31,GB,1684746543
374,wynyard,-41.0,145.7167,12.770000000000039,80,85,5.8,AU,1684746543
375,smithers,54.7804,-127.1743,7.8799999999999955,88,75,2.05,CA,1684746544
376,thohoyandou,-22.9456,30.485,20.910000000000025,49,2,5.26,ZA,1684746544
377,paragominas,-2.9667,-47.4833,21.77000000000004,99,100,1.23,BR,1684745991
378,gadzhiyevo,69.2551,33.3362,9.270000000000039,65,19,4.84,RU,1684746545
379,port blair,11.6667,92.75,32.02000000000004,62,40,4.63,IN,1684745983
380,nacala,-14.5428,40.6728,30.58000000000004,53,2,1.61,MZ,1684746546
381,noosa heads,-26.3833,153.15,14.5,74,0,4.55,AU,1684746546
382,black point,-34.6187,137.8972,13.980000000000018,64,44,1.7,AU,1684746546
383,san carlos del zulia,9.0,-71.9135,23.49000000000001,97,100,2.59,VE,1684746547
384,newman,37.3138,-121.0208,19.470000000000027,72,62,1.34,US,1684745948
385,kassala,15.451,36.4,37.82000000000005,12,0,1.2,SD,1684746547
386,prince rupert,54.3161,-130.3201,8.840000000000032,88,99,1.3,CA,1684746547
387,navolato,24.7672,-107.6944,23.920000000000016,30,1,2.22,MX,1684746548
388,ash shihaniyah,25.3686,51.2264,39.97000000000003,18,12,6.12,QA,1684746548
389,al muwayh,22.4333,41.7583,32.69,17,0,3.37,SA,1684746548
390,homer,59.6425,-151.5483,7.110000000000014,66,20,3.58,US,1684746549
391,antsiranana,-12.2787,49.2917,31.420000000000016,48,40,4.12,MG,1684745982
392,mana,5.6592,-53.7767,25.210000000000036,91,94,3.4,GF,1684746549
393,center,31.5107,-96.4247,19.220000000000027,78,75,0.0,US,1684746549
394,fairfield,41.2668,-73.3162,14.490000000000009,82,0,2.57,US,1684746550
395,tukrah,32.5341,20.5791,20.27000000000004,72,86,8.3,LY,1684746550
396,xiva,41.3783,60.3639,27.99000000000001,17,100,4.28,UZ,1684746550
397,quatre cocos,-20.2078,57.7625,28.379999999999995,65,1,1.59,MU,1684746550
398,batticaloa,7.7102,81.6924,30.010000000000048,70,12,4.36,LK,1684746448
399,cambria,35.5641,-121.0808,15.54000000000002,93,65,0.89,US,1684746551
400,camamu,-13.9447,-39.1039,20.57000000000005,91,71,2.5,BR,1684746551
401,karwar,14.8,74.1333,31.410000000000025,64,11,6.73,IN,1684746349
402,rumbek,6.802,29.6912,38.51000000000005,28,16,1.43,SS,1684746552
403,bengkulu,-3.8004,102.2655,29.07000000000005,70,67,2.59,ID,1684745962
404,tilcara,-23.5776,-65.3509,4.7000000000000455,20,21,5.78,AR,1684746553
405,caleta de carquin,-11.0925,-77.6267,20.700000000000045,85,80,2.54,PE,1684746553
406,college,64.8569,-147.8028,13.990000000000009,64,75,6.17,US,1684746471
407,pangoa,-12.1167,-73.0,20.090000000000032,99,58,0.9,PE,1684746554
408,nagqu,31.5,92.0,8.870000000000005,11,87,9.95,CN,1684746318
409,lunavada,23.1333,73.6167,41.629999999999995,16,0,4.8,IN,1684746554
410,tadine,-21.55,167.8833,22.379999999999995,63,100,6.42,NC,1684746554
411,howrah,22.5892,88.3103,36.0,52,20,6.69,IN,1684746555
412,nar'yan-mar,67.6713,53.087,21.189999999999998,43,17,4.1,RU,1684746555
413,akobo,7.4344,3.9497,27.920000000000016,74,96,1.1,NG,1684746555
414,gobabis,-22.45,18.9667,23.07000000000005,17,1,1.62,NA,1684746555
415,murzuq,25.9155,13.9184,29.600000000000023,12,11,2.91,LY,1684746556
416,vetlanda,57.4289,15.0776,21.700000000000045,27,19,2.94,SE,1684746556
417,santo antonio do monte,-20.0872,-45.2936,11.090000000000032,90,35,1.53,BR,1684746556
418,yanliang,34.6592,109.2292,22.52000000000004,25,99,1.79,CN,1684746556
419,zahedan,29.4963,60.8629,31.950000000000045,22,75,5.14,IR,1684746557
420,bandar lampung,-5.4254,105.258,28.420000000000016,74,100,2.6,ID,1684746543
421,bouarfa,32.53,-1.95,13.920000000000016,46,11,9.75,MA,1684746557
422,taylor,32.3001,-99.8337,15.740000000000009,83,0,3.6,US,1684746557
423,ushirombo,-3.4919,31.9639,27.060000000000002,46,6,2.09,TZ,1684746558
424,teguise,29.0605,-13.564,18.120000000000005,56,40,6.17,ES,1684746558
425,kouango,4.9934,19.9619,32.860000000000014,49,80,2.03,CF,1684746558
426,portland,45.5234,-122.6762,12.490000000000009,76,40,1.54,US,1684745967
427,sandnessjoen,66.0217,12.6316,16.060000000000002,61,0,1.54,NO,1684745979
428,akureyri,65.6835,-18.0878,4.860000000000014,71,87,6.5,IS,1684746559
429,vostochnyy,55.8167,37.8667,16.610000000000014,95,100,1.89,RU,1684746559
430,atyashevo,54.5644,46.0691,21.32000000000005,44,100,6.26,RU,1684746560
431,kabba,7.8287,6.0731,26.910000000000025,77,100,1.88,NG,1684746560
432,saudarkrokur,65.7461,-19.6394,3.5,91,98,3.92,IS,1684746418
433,beinamar,8.6698,15.3813,32.129999999999995,46,44,2.97,TD,1684746560
434,at taj,24.2049,23.2857,34.53000000000003,11,10,7.08,LY,1684746561
435,ola,59.5833,151.2833,3.650000000000034,86,88,2.48,RU,1684746561
436,bonthe,7.5264,-12.505,29.160000000000025,69,100,1.12,SL,1684746561
437,happy valley-goose bay,53.3168,-60.3315,0.26000000000004775,75,19,4.44,CA,1684746562
438,kapuskasing,49.4169,-82.4331,0.0,80,0,2.57,CA,1684746279
439,novaya igirma,57.1334,103.9112,16.54000000000002,56,81,3.06,RU,1684746562
440,kanniyakumari,8.0833,77.5667,30.150000000000034,73,30,6.86,IN,1684746563
441,flin flon,54.7682,-101.865,5.78000000000003,52,41,2.61,CA,1684746563
442,kenai,60.5544,-151.2583,3.9700000000000273,87,0,0.0,US,1684746405
443,oum hadjer,13.2954,19.6966,37.19,24,78,1.29,TD,1684746563
444,uryupinsk,50.8047,42.0138,22.560000000000002,49,100,6.79,RU,1684746564
445,mitu,1.1983,-70.1733,22.129999999999995,99,100,0.34,CO,1684746409
446,akim oda,5.9231,-0.9951,26.010000000000048,88,97,0.61,GH,1684746564
447,acarau,-2.8856,-40.12,24.340000000000032,90,73,4.46,BR,1684746305
448,haiku-pauwela,20.9219,-156.3051,23.910000000000025,77,0,6.69,US,1684746564
449,kudahuvadhoo,2.6708,72.8944,29.02000000000004,68,10,1.96,MV,1684746565
450,karaidel',55.8337,56.9069,24.870000000000005,22,28,1.94,RU,1684746565
451,kourou,5.1552,-52.6478,24.03000000000003,94,100,3.07,GF,1684745996
452,tomatlan,19.9333,-105.25,23.74000000000001,89,7,1.49,MX,1684746565
453,lyantor,61.6195,72.1555,16.629999999999995,34,1,4.81,RU,1684746565
454,almyros,39.1822,22.7594,19.700000000000045,73,75,2.06,GR,1684746566
455,kuala belait,4.5833,114.1833,29.83000000000004,69,78,3.57,BN,1684746566
456,okhotsk,59.3833,143.3,1.080000000000041,97,100,6.26,RU,1684745982
457,vuktyl,63.8567,57.3094,19.890000000000043,35,11,1.12,RU,1684746567
458,bikenibeu village,1.3673,173.1241,26.980000000000018,94,75,0.51,KI,1684746567
459,sakhnovshchyna,49.1517,35.872,20.650000000000034,50,89,4.09,UA,1684746567
460,mizhirah,16.8261,42.7333,36.49000000000001,44,5,5.8,SA,1684746567
461,chui,-33.6971,-53.4616,16.05000000000001,98,30,2.04,UY,1684746567
462,uige,-7.6087,15.0613,24.379999999999995,78,97,0.23,AO,1684746568
463,nicoya,10.1483,-85.452,25.80000000000001,79,100,1.23,CR,1684745995
464,steamboat springs,40.485,-106.8317,9.720000000000027,77,0,0.0,US,1684746568
465,kyzyl-mazhalyk,51.1333,90.6,16.77000000000004,28,94,4.71,RU,1684746569
466,berdigestyakh,62.0989,126.6992,5.640000000000043,36,100,4.68,RU,1684746569
467,hammerfest,70.6634,23.6821,11.25,66,0,2.57,NO,1684746569
468,mutoko,-17.397,32.2268,27.83000000000004,26,0,1.25,ZW,1684746325
469,mokhsogollokh,61.4681,128.9203,6.150000000000034,40,100,3.57,RU,1684746570
470,kerikeri,-35.2268,173.9474,13.28000000000003,94,71,4.11,NZ,1684746570
471,pimenta bueno,-11.6725,-61.1936,21.970000000000027,82,95,1.34,BR,1684746570
472,gemena,3.25,19.7667,30.110000000000014,58,78,1.48,CD,1684746570
473,cannonvale,-20.2833,148.7,19.660000000000025,67,3,7.65,AU,1684746571
474,tangalle,6.024,80.7911,32.09000000000003,66,13,5.69,LK,1684746571
475,greenwood,34.1668,-82.1165,16.82000000000005,61,0,1.54,US,1684746571
476,san rafael del sur,11.8485,-86.4384,26.450000000000045,72,100,3.86,NI,1684746572
477,harstad,68.799,16.5293,12.660000000000025,80,8,7.6,NO,1684746572
478,iquique,-20.2208,-70.1431,18.02000000000004,77,35,3.07,CL,1684746572
479,missoula,47.0166,-113.8009,11.420000000000016,85,96,1.83,US,1684746302
480,red hill,33.9996,-79.2581,17.920000000000016,87,80,2.89,US,1684746573
481,flying fish cove,-10.4217,105.6791,26.82000000000005,83,75,4.12,CX,1684746573
482,tolanaro,-25.0319,46.9987,26.57000000000005,38,0,4.41,MG,1684746573
483,yuzhno-kurilsk,44.0306,145.8556,8.160000000000025,95,100,3.56,RU,1684746574
484,campo formoso,-10.5075,-40.3214,18.939999999999998,96,94,4.06,BR,1684746574
485,sabak bernam,3.7698,100.9879,30.060000000000002,66,65,3.91,MY,1684746574
486,yongchuan,29.3514,105.8947,18.410000000000025,65,90,1.95,CN,1684746574
487,rabo de peixe,37.8,-25.5833,16.730000000000018,77,20,3.09,PT,1684746575
488,mirador,-6.3708,-44.3631,21.840000000000032,81,50,2.05,BR,1684746575
489,acajutla,13.5928,-89.8275,27.379999999999995,73,100,2.42,SV,1684746575
490,rio claro,-22.4114,-47.5614,13.080000000000041,79,100,2.01,BR,1684746575
491,arraias,-12.9288,-46.9437,15.660000000000025,50,5,2.46,BR,1684746576
492,lisakovsk,52.5369,62.4936,23.77000000000004,24,6,3.53,KZ,1684746576
493,fort st. john,56.2499,-120.8529,12.939999999999998,82,100,5.66,CA,1684746577
494,reggane,26.7158,0.1714,27.08000000000004,16,8,8.9,DZ,1684746368
495,mouila,-1.8685,11.0559,25.55000000000001,88,99,0.42,GA,1684746577
496,san julian,21.0167,-102.1667,18.57000000000005,56,72,2.58,MX,1684746578
497,petushki,55.9264,39.461,18.640000000000043,67,100,2.58,RU,1684746578
498,ghat,24.9647,10.1728,29.890000000000043,13,18,0.79,LY,1684746578
499,kapoeta,4.7717,33.5903,35.14000000000004,30,17,8.45,SS,1684746579
500,crane,31.3974,-102.3501,18.420000000000016,90,11,6.73,US,1684745990
501,yorkton,51.2167,-102.4677,11.310000000000002,70,57,4.38,CA,1684746579
502,nikolayevsk-on-amure,53.1406,140.73,10.060000000000002,58,28,2.85,RU,1684746579
503,tyukhtet,56.5389,89.3011,16.670000000000016,51,95,4.63,RU,1684746579
504,kavaratti,10.5669,72.642,29.670000000000016,72,91,5.76,IN,1684746580
505,bataipora,-22.2953,-53.2711,16.930000000000007,65,99,2.9,BR,1684746580
506,ta`u,-14.2336,-169.5144,27.640000000000043,77,98,4.11,AS,1684746580
507,turpan,42.9333,89.1667,33.75,12,81,2.66,CN,1684745993
508,hays,30.0502,-98.0336,18.210000000000036,91,86,1.22,US,1684746549
509,kingscliff,-28.2667,153.5667,15.430000000000007,72,0,2.57,AU,1684746581
510,zouerate,22.7187,-12.4521,21.110000000000014,41,97,4.25,MR,1684746581
511,irymple,-34.25,142.1667,8.939999999999998,65,0,2.92,AU,1684746581
512,yelizovo,53.1873,158.3805,1.7300000000000182,100,100,4.02,RU,1684746582
513,leeton,-34.5667,146.4,11.050000000000011,61,7,2.23,AU,1684746582
514,glogow,51.6636,16.0845,20.460000000000036,57,100,5.35,PL,1684746582
515,ponta pora,-22.5361,-55.7256,17.04000000000002,74,68,4.21,BR,1684746582
516,bodaybo,57.8506,114.1933,13.32000000000005,78,100,2.89,RU,1684745986
517,budleigh salterton,50.6298,-3.3218,17.200000000000045,55,0,3.6,GB,1684746583
518,freetown,8.484,-13.2299,28.629999999999995,74,99,0.81,SL,1684746583
519,sao bento,-6.2833,-37.75,20.420000000000016,89,43,1.7,BR,1684746583
520,funafuti,-8.5243,179.1942,30.0,84,75,1.03,TV,1684746584
521,fuerte olimpo,-21.0415,-57.8738,20.350000000000023,80,55,1.68,PY,1684746584
522,palmer,42.1584,-72.3287,13.830000000000041,91,0,0.0,US,1684746584
523,hernando,28.5419,-82.4582,23.75,93,0,0.45,US,1684746585
524,vernon,50.2581,-119.2691,14.78000000000003,67,100,1.79,CA,1684746585
525,zaragoza,41.6561,-0.8773,18.810000000000002,65,0,4.63,ES,1684746585
526,vadso,70.0744,29.7487,11.490000000000009,76,75,5.66,NO,1684746586
527,skopin,53.8249,39.5505,21.420000000000016,53,100,5.23,RU,1684746586
528,monroe,43.1501,-77.6831,11.410000000000025,87,20,4.12,US,1684746419
529,bairnsdale,-37.8333,147.6167,9.470000000000027,84,33,2.68,AU,1684746586
530,binzhou,37.3667,118.0167,28.05000000000001,15,0,3.49,CN,1684746586
531,ubari,26.5921,12.7805,28.49000000000001,13,3,4.01,LY,1684746587
532,zabaykal'sk,49.6333,117.3167,22.54000000000002,18,57,4.54,RU,1684746587
533,arkalyk,50.2486,66.9114,23.30000000000001,20,71,5.61,KZ,1684746587
534,pankshin,9.3333,9.45,27.33000000000004,51,85,2.47,NG,1684746587
535,severo-yeniseyskiy,60.3725,93.0408,13.020000000000039,42,15,4.19,RU,1684746588
536,zima,53.9202,102.0442,20.850000000000023,24,100,1.55,RU,1684746588
537,bodo,67.28,14.405,15.53000000000003,62,40,5.14,NO,1684746588
538,starotitarovskaya,45.2136,37.1439,18.260000000000048,80,95,1.81,RU,1684746588
539,sur,22.5667,59.5289,36.33000000000004,38,71,1.1,OM,1684746588
540,holmsund,63.706,20.3641,16.970000000000027,48,0,5.14,SE,1684746589
541,takai,11.5833,9.1167,33.150000000000034,37,75,2.16,NG,1684746589
542,mweka,-4.85,21.5667,29.82000000000005,55,98,0.86,CD,1684746590
543,dakhla,23.6848,-15.958,18.420000000000016,82,49,5.55,EH,1684746590
544,kaa-khem,51.6833,94.7333,19.870000000000005,31,99,3.34,RU,1684746590
545,bischofsheim an der rhon,50.4024,10.0075,21.689999999999998,57,99,1.87,DE,1684746590
546,mar del plata,-38.0023,-57.5575,17.83000000000004,95,100,4.12,AR,1684745910
547,yanchep,-31.55,115.6833,19.970000000000027,58,97,2.58,AU,1684746591
548,goure,13.9835,10.2704,35.09000000000003,34,63,8.66,NE,1684746592
549,el bauga,18.262,33.9081,39.24000000000001,8,0,5.93,SD,1684746592
550,cooma,-36.2333,149.1333,5.32000000000005,66,50,0.57,AU,1684746370
551,uva,56.9908,52.1852,24.930000000000007,29,22,1.95,RU,1684746593
552,nadi,-17.8,177.4167,25.0,94,40,2.57,FJ,1684746317
553,sayat,38.7839,63.8803,38.03000000000003,10,69,9.2,TM,1684746593
554,nema,57.5067,50.5011,23.32000000000005,42,70,1.93,RU,1684746594
555,nuku'alofa,-21.1333,-175.2,23.189999999999998,83,75,1.54,TO,1684746375
556,natchez,31.5604,-91.4032,17.360000000000014,94,0,0.0,US,1684746594
557,khovd,48.0056,91.6419,8.340000000000032,79,100,4.39,MN,1684746595
558,sydney,-33.8679,151.2073,14.090000000000032,69,2,1.95,AU,1684745921
559,zdolbuniv,50.5206,26.2425,18.04000000000002,50,13,3.35,UA,1684746595
560,kimbe,-5.5502,150.1429,24.07000000000005,95,100,1.18,PG,1684746595
561,baki,-7.6128,110.7839,29.350000000000023,62,14,2.77,ID,1684746596
562,east ballina,-28.8667,153.5833,13.220000000000027,68,0,2.43,AU,1684746596
563,weining,26.85,104.2333,15.230000000000018,74,88,4.11,CN,1684746596
564,selfoss,63.9331,-20.9971,6.689999999999998,67,94,10.39,IS,1684746596
565,villers-cotterets,49.2531,3.09,17.700000000000045,76,23,3.83,FR,1684746596
566,flandes,4.2941,-74.819,23.110000000000014,96,100,1.49,CO,1684746578
567,atherton,53.5237,-2.4935,18.77000000000004,69,8,3.13,GB,1684746597
